[
  {
    "id": "1780400666022",
    "name": "گالری طلا سنجاق",
    "phone": "5137678245",
    "address": "مشهد، بلوار سجاد، بزرگمهر جنوبی 23 (محله سجاد شهر)",
    "type": "gold",
    "lat": 36.318831,
    "lng": 59.550726,
    "active": 1,
    "photos": "",
    "hours": "شنبه:تعطیل|یکشنبه:تعطیل|دوشنبه:09:00-20:00|سه‌شنبه:09:00-20:00|چهارشنبه:09:00-20:00|پنجشنبه:09:00-20:00|جمعه:09:00-20:00"
  },
  {
    "id": "1780400687317",
    "name": "مجتمع تجاری و اداری طلا و جواهر",
    "phone": "",
    "address": "مشهد، بلوار امام خمینی، امام خمینی 28 (محله ده دی)",
    "type": "gold",
    "lat": 36.297201,
    "lng": 59.60669,
    "active": 1,
    "photos": "",
    "hours": ""
  },
  {
    "id": "1780400703991",
    "name": "پاساژ ارگ (بازار طلای مشهد)",
    "phone": "",
    "address": "مشهد، بلوار امام خمینی، امام خمینی 21 (محله جنت)",
    "type": "gold",
    "lat": 36.2972006,
    "lng": 59.60669,
    "active": 1,
    "photos": "",
    "hours": ""
  },
  {
    "id": "1780400717611",
    "name": "بازار طلا و جواهر مدرس",
    "phone": "",
    "address": "مشهد، بلوار مدرس، بلوار امام خمینی (محله جنت)",
    "type": "gold",
    "lat": 36.293,
    "lng": 59.600201,
    "active": 1,
    "photos": "",
    "hours": ""
  },
  {
    "id": "1780400732335",
    "name": "بازارچه طلا کاوه",
    "phone": "",
    "address": "مشهد، بلوار مدرس، بین مدرس 1 و بلوار امام خمینی، پارکینگ",
    "type": "gold",
    "lat": 36.297201,
    "lng": 59.60669,
    "active": 1,
    "photos": "",
    "hours": ""
  },
  {
    "id": "1780400759372",
    "name": "بازارچه طلا ایران",
    "phone": "",
    "address": "مشهد، شهید دیالمه، دیالمه 1 (محله ده دی)",
    "type": "gold",
    "lat": 36.291418,
    "lng": 59.602659,
    "active": 1,
    "photos": "",
    "hours": ""
  },
  {
    "id": "1780400777462",
    "name": "مجتمع طلا و جواهر لیدوما",
    "phone": "5132229111",
    "address": "مشهد، شهید دیالمه، بین دیالمه 2 و بلوار امام خمینی (محله سراب)",
    "type": "gold",
    "lat": 36.297201,
    "lng": 59.60669,
    "active": 1,
    "photos": "",
    "hours": ""
  },
  {
    "id": "1780400794739",
    "name": "بازارچه طلا",
    "phone": "",
    "address": "مشهد، شهید دیالمه، بین دیالمه 2 و بلوار امام خمینی (محله سراب)",
    "type": "gold",
    "lat": 36.297201,
    "lng": 59.60669,
    "active": 1,
    "photos": "",
    "hours": ""
  },
  {
    "id": "1780400878909",
    "name": "مجتمع طلا و جواهر عماد سنتر",
    "phone": "",
    "address": "مشهد، نیش امامت 28",
    "type": "gold",
    "lat": 36.328878,
    "lng": 59.532243,
    "active": 1,
    "photos": "",
    "hours": ""
  },
  {
    "id": "1780400909218",
    "name": "مرکز خرید آرمیتاژ",
    "phone": "",
    "address": "مشهد - نیش هفت تیر 8 - خیابان گلشن",
    "type": "gold",
    "lat": 36.324334,
    "lng": 59.499579,
    "active": 1,
    "photos": "",
    "hours": ""
  },
  {
    "id": "1780400923756",
    "name": "مجتمع تجاری الماس شرق",
    "phone": "",
    "address": "مشهد، انتهای بلوار خیام شمالی، مجتمع تجاری گردشگری الماس",
    "type": "gold",
    "lat": 36.32502,
    "lng": 59.570795,
    "active": 1,
    "photos": "",
    "hours": ""
  },
  {
    "id": "1780401130006",
    "name": "فروشگاه نقره و بدلیجات",
    "phone": "",
    "address": "مشهد، اقبال، بلوار صید شیرازی، سازمان تامین اجتماعی شعبه 3",
    "type": "silver",
    "lat": 36.331332,
    "lng": 59.484784,
    "active": 1,
    "photos": "",
    "hours": ""
  },
  {
    "id": "1780401178809",
    "name": "فروشگاه تیتانیوم و نقره",
    "phone": "",
    "address": "مشهد، شهرک غرب (قاسم آباد)، بلوار شاهد بن بلوار شهید فلاحی",
    "type": "silver",
    "lat": 36.3516957,
    "lng": 59.5143986,
    "active": 1,
    "photos": "",
    "hours": ""
  },
  {
    "id": "1780401219513",
    "name": "فروشگاه نقره هاشمیان",
    "phone": "9017735590",
    "address": "مشهد، احمدآباد، بلوار کوهسنگی",
    "type": "silver",
    "lat": 36.284549,
    "lng": 59.562862,
    "active": 1,
    "photos": "",
    "hours": ""
  },
  {
    "id": "1780401267563",
    "name": "فروشگاه نقره جات و عطر صادفات",
    "phone": "5132210000",
    "address": "مشهد، خ آیت الله بهجت، بین بهجت 6 و 8",
    "type": "silver",
    "lat": 36.2972006,
    "lng": 59.60669,
    "active": 1,
    "photos": "",
    "hours": ""
  },
  {
    "id": "1780401345531",
    "name": "فروشگاه سنگ و نقره جات جواهری",
    "phone": "9368374921",
    "address": "مشهد، حرم مطهر، خیابان نواب صفوی، پلاک 12",
    "type": "silver",
    "lat": 36.283934,
    "lng": 59.621,
    "active": 1,
    "photos": "",
    "hours": ""
  },
  {
    "id": "1780401373581",
    "name": "گالری نقره فروشی احد",
    "phone": "5133685898",
    "address": "مشهد، منطقه ثامن، بازار رضا",
    "type": "silver",
    "lat": 36.27886,
    "lng": 59.616139,
    "active": 1,
    "photos": "",
    "hours": ""
  }
]